{
  "type": "FeatureCollection",
  "features": [
    {
      "type": "Feature",
      "geometry": {
        "type": "Point",
        "coordinates": [
          121.788106,
          25.13664
        ]
      },
      "properties": {
        "name": "\u57fa\u9686\u65b0\u8c50\u5e97",
        "open": "05:00\u201304:00",
        "address": "\u57fa\u9686\u5e02\u4e2d\u6b63\u5340\u65b0\u8c50\u8857249\u865f",
        "number": "02-2469-2091"
      }
    },
    {
      "type": "Feature",
      "geometry": {
        "type": "Point",
        "coordinates": [
          121.744749,
          25.131108
        ]
      },
      "properties": {
        "name": "\u57fa\u9686\u4fe1\u4e00\u65d7\u8266\u5c08\u6ac3",
        "open": "05:00\u201304:00",
        "address": "\u57fa\u9686\u5e02\u4fe1\u7fa9\u5340\u4fe1\u4e00\u8def177\u865f",
        "number": "02-2421-3531"
      }
    },
    {
      "type": "Feature",
      "geometry": {
        "type": "Point",
        "coordinates": [
          121.709959,
          25.142134
        ]
      },
      "properties": {
        "name": "\u57fa\u9686\u5927\u6b66\u5d19\u65d7\u8266\u5c08\u6ac3",
        "open": "05:00\u201304:00",
        "address": "\u57fa\u9686\u5e02\u5b89\u6a02\u5340\u57fa\u91d1\u4e00\u8def206-1\u865f",
        "number": "02-2431-5206"
      }
    },
    {
      "type": "Feature",
      "geometry": {
        "type": "Point",
        "coordinates": [
          121.549149,
          25.082813
        ]
      },
      "properties": {
        "name": "\u53f0\u5317\u5317\u5b89\u65d7\u8266\u5c08\u6ac3",
        "open": "05:00\u201304:00",
        "address": "\u53f0\u5317\u5e02\u4e2d\u5c71\u5340\u5317\u5b89\u8def626\u865f1\u6a13",
        "number": "02-2533-6263"
      }
    },
    {
      "type": "Feature",
      "geometry": {
        "type": "Point",
        "coordinates": [
          121.525537,
          25.052037
        ]
      },
      "properties": {
        "name": "\u6797\u68ee\u4e00\u5e97",
        "open": "06:00\u201303:00",
        "address": "\u53f0\u5317\u5e02\u4e2d\u5c71\u5340\u5357\u4eac\u6771\u8def1\u6bb586\u865f",
        "number": "02-2537-4880"
      }
    },
    {
      "type": "Feature",
      "geometry": {
        "type": "Point",
        "coordinates": [
          121.525494,
          25.05194
        ]
      },
      "properties": {
        "name": "\u53f0\u5317\u5357\u4eac\u4e94\u5e97",
        "open": "06:00\u201300:00",
        "address": "\u53f0\u5317\u5e02\u4e2d\u5c71\u5340\u5357\u4eac\u6771\u8def\u4e09\u6bb5210\u4e4b1\u865f",
        "number": "02-2751-5390"
      }
    },
    {
      "type": "Feature",
      "geometry": {
        "type": "Point",
        "coordinates": [
          121.520681,
          25.05231
        ]
      },
      "properties": {
        "name": "\u5357\u897f\u8aa0\u54c1\u65d7\u8266\u5c08\u6ac3",
        "open": "\u5e73\u65e507:00\u201322:00\u3001\u5047\u65e507:00\u201322:30",
        "address": "\u53f0\u5317\u5e02\u4e2d\u5c71\u5340\u5357\u4eac\u897f\u8def14\u865f",
        "number": "0"
      }
    },
    {
      "type": "Feature",
      "geometry": {
        "type": "Point",
        "coordinates": [
          121.525805,
          25.059971
        ]
      },
      "properties": {
        "name": "\u6797\u68ee\u4e09\u5e97",
        "open": "05:00\u201304:00",
        "address": "\u53f0\u5317\u5e02\u4e2d\u5c71\u5340\u6797\u68ee\u5317\u8def413\u865f1\u6a13",
        "number": "02-2567-7038"
      }
    },
    {
      "type": "Feature",
      "geometry": {
        "type": "Point",
        "coordinates": [
          121.530467,
          25.062864
        ]
      },
      "properties": {
        "name": "\u53f0\u5317\u6c11\u6b0a\u4e8c\u5e97",
        "open": "05:00\u201304:00",
        "address": "\u53f0\u5317\u5e02\u4e2d\u5c71\u5340\u6c11\u6b0a\u6771\u8def2\u6bb543\u865f1\u6a13",
        "number": "02-2591-0105"
      }
    },
    {
      "type": "Feature",
      "geometry": {
        "type": "Point",
        "coordinates": [
          121.519963,
          25.062768
        ]
      },
      "properties": {
        "name": "\u6c11\u6b0a\u4e09\u5e97",
        "open": "06:00\u201300:00",
        "address": "\u53f0\u5317\u5e02\u4e2d\u5c71\u5340\u6c11\u6b0a\u897f\u8def68\u865f1\u6a13",
        "number": "02-2511-5655"
      }
    },
    {
      "type": "Feature",
      "geometry": {
        "type": "Point",
        "coordinates": [
          121.533862,
          25.054752
        ]
      },
      "properties": {
        "name": "\u9577\u6625\u65d7\u8266\u5c08\u6ac3",
        "open": "06:00\u201300:00",
        "address": "\u53f0\u5317\u5e02\u4e2d\u5c71\u5340\u9577\u6625\u8def172\u865f",
        "number": "02-2504-2797"
      }
    },
    {
      "type": "Feature",
      "geometry": {
        "type": "Point",
        "coordinates": [
          121.516738,
          25.044664
        ]
      },
      "properties": {
        "name": "\u53f0\u5317\u516c\u5712\u5e97",
        "open": "06:00\u201300:00",
        "address": "\u53f0\u5317\u5e02\u4e2d\u6b63\u5340\u516c\u5712\u8def30-1\u865f",
        "number": "02-2375-4891"
      }
    },
    {
      "type": "Feature",
      "geometry": {
        "type": "Point",
        "coordinates": [
          121.517079,
          25.047904
        ]
      },
      "properties": {
        "name": "\u53f0\u5317\u8eca\u7ad9\u5fae\u98a8\u5e97",
        "open": "06:00\u201322:00",
        "address": "\u53f0\u5317\u5e02\u4e2d\u6b63\u5340\u5317\u5e73\u897f\u8def3\u865f1\u6a13",
        "number": "02-2311-6665"
      }
    },
    {
      "type": "Feature",
      "geometry": {
        "type": "Point",
        "coordinates": [
          121.518634,
          25.029572
        ]
      },
      "properties": {
        "name": "\u53f0\u5317\u5357\u660c\u5e97",
        "open": "06:00\u201323:00",
        "address": "\u53f0\u5317\u5e02\u4e2d\u6b63\u5340\u5357\u660c\u8def1\u6bb5149\u865f1\u6a13",
        "number": "02-2351-8531"
      }
    },
    {
      "type": "Feature",
      "geometry": {
        "type": "Point",
        "coordinates": [
          121.523395,
          25.044612
        ]
      },
      "properties": {
        "name": "\u6797\u68ee\u4e8c\u65d7\u8266\u5c08\u6ac3",
        "open": "06:00\u201300:00",
        "address": "\u53f0\u5317\u5e02\u4e2d\u6b63\u5340\u6797\u68ee\u5357\u8def1\u865f",
        "number": "02-2391-1196"
      }
    },
    {
      "type": "Feature",
      "geometry": {
        "type": "Point",
        "coordinates": [
          121.532567,
          25.040249
        ]
      },
      "properties": {
        "name": "\u53f0\u5317\u6fdf\u5357\u5e97",
        "open": "06:00\u201300:00",
        "address": "\u53f0\u5317\u5e02\u4e2d\u6b63\u5340\u6fdf\u5357\u8def2\u6bb566\u865f1\u6a13",
        "number": "02-2395-8275"
      }
    },
    {
      "type": "Feature",
      "geometry": {
        "type": "Point",
        "coordinates": [
          121.534608,
          25.014266
        ]
      },
      "properties": {
        "name": "\u53f0\u5317\u516c\u9928\u5e97",
        "open": "06:00\u201300:00",
        "address": "\u53f0\u5317\u5e02\u4e2d\u6b63\u5340\u7f85\u65af\u798f\u8def\u56db\u6bb576-1\u865f",
        "number": "02-2366-1123"
      }
    },
    {
      "type": "Feature",
      "geometry": {
        "type": "Point",
        "coordinates": [
          121.515003,
          25.046093
        ]
      },
      "properties": {
        "name": "\u53f0\u5317\u9928\u524d\u5e97",
        "open": "\u661f\u671f\u4e09~\u65e504:00\u201303:00\n\u661f\u671f\u4e00\n04:00\u201300:00\n\u661f\u671f\u4e8c\n06:00\u201303:00",
        "address": "\u53f0\u5317\u5e02\u4e2d\u6b63\u5340\u9928\u524d\u8def8\u865f",
        "number": "02-2311-1460"
      }
    },
    {
      "type": "Feature",
      "geometry": {
        "type": "Point",
        "coordinates": [
          121.564274,
          25.034283
        ]
      },
      "properties": {
        "name": "\u53f0\u5317\u65b0101\u5e97",
        "open": "\u661f\u671f\u4e94\u3001\u516d\r\n08:00\u201322:00\r\n\u661f\u671f\u65e5~\u56db\r\n08:00\u201321:30",
        "address": "\u53f0\u5317\u5e02\u4fe1\u7fa9\u5340\u5e02\u5e9c\u8def45\u865fB1",
        "number": "02-8101-7708"
      }
    },
    {
      "type": "Feature",
      "geometry": {
        "type": "Point",
        "coordinates": [
          121.579241,
          25.041432
        ]
      },
      "properties": {
        "name": "\u5fe0\u5b5d\u56db\u5e97",
        "open": "05:00\u201300:00",
        "address": "\u53f0\u5317\u5e02\u4fe1\u7fa9\u5340\u5fe0\u5b5d\u6771\u8def5\u6bb5522\u865f1\u6a13",
        "number": "02-2759-5793"
      }
    },
    {
      "type": "Feature",
      "geometry": {
        "type": "Point",
        "coordinates": [
          121.579197,
          25.049413
        ]
      },
      "properties": {
        "name": "\u677e\u5c71\u8eca\u7ad9\u5e97",
        "open": "06:00\u201300:00",
        "address": "\u53f0\u5317\u5e02\u4fe1\u7fa9\u5340\u677e\u5c71\u8def11\u865f\u4e00\u6a13\u5546\u5834",
        "number": "02-2742-0575"
      }
    },
    {
      "type": "Feature",
      "geometry": {
        "type": "Point",
        "coordinates": [
          121.566729,
          25.038184
        ]
      },
      "properties": {
        "name": "\u65b0\u5149\u4fe1\u7fa9\u5e97",
        "open": "\u661f\u671f\u4e94\u3001\u516d\n11:00\u201322:00\n\u661f\u671f\u65e5~\u56db\n11:00\u201321:30",
        "address": "\u53f0\u5317\u5e02\u4fe1\u7fa9\u5340\u677e\u9ad8\u8def12\u865fB2",
        "number": "02-8789-6315"
      }
    },
    {
      "type": "Feature",
      "geometry": {
        "type": "Point",
        "coordinates": [
          121.568664,
          25.026992
        ]
      },
      "properties": {
        "name": "\u53f0\u5317\u838a\u656c\u65d7\u8266\u5c08\u6ac3",
        "open": "05:00\u201304:00",
        "address": "\u53f0\u5317\u5e02\u4fe1\u7fa9\u5340\u838a\u656c\u8def475\u865f1\u6a13",
        "number": "02-8780-0218"
      }
    },
    {
      "type": "Feature",
      "geometry": {
        "type": "Point",
        "coordinates": [
          121.579416,
          25.081006
        ]
      },
      "properties": {
        "name": "\u53f0\u5317\u5167\u6e56\u5e97",
        "open": "04:00\u201303:00",
        "address": "\u53f0\u5317\u5e02\u5167\u6e56\u5340\u5167\u6e56\u8def1\u6bb5741\u865f1\u6a13",
        "number": "02-2658-1021"
      }
    },
    {
      "type": "Feature",
      "geometry": {
        "type": "Point",
        "coordinates": [
          121.566247,
          25.082505
        ]
      },
      "properties": {
        "name": "\u53f0\u5317\u897f\u6e56\u65d7\u8266\u5c08\u6ac3",
        "open": "\u661f\u671f\u56db~\u4e00\n05:00\u201304:00\n\u661f\u671f\u4e8c\n05:00\u201300:00\n\u661f\u671f\u4e09\n06:00\u201304:00",
        "address": "\u53f0\u5317\u5e02\u5167\u6e56\u5340\u5167\u6e56\u8def\u4e00\u6bb5283\u865f1\u6a13",
        "number": "02-8751-3326"
      }
    },
    {
      "type": "Feature",
      "geometry": {
        "type": "Point",
        "coordinates": [
          121.569443,
          25.079226
        ]
      },
      "properties": {
        "name": "\u53f0\u5317\u745e\u5149\u5e97",
        "open": "\u5e73\u65e507:00\u201321:00\u3001\u5047\u65e507:00\u201320:00",
        "address": "\u53f0\u5317\u5e02\u5167\u6e56\u5340\u745e\u5149\u8def517\u865f1\u6a13",
        "number": "02-8751-5597"
      }
    },
    {
      "type": "Feature",
      "geometry": {
        "type": "Point",
        "coordinates": [
          121.579347,
          25.060811
        ]
      },
      "properties": {
        "name": "\u53f0\u5317\u820a\u5b97\u9910\u5ef3",
        "open": "06:00\u201300:00",
        "address": "\u53f0\u5317\u5e02\u5167\u6e56\u5340\u820a\u5b97\u8def\u4e00\u6bb5135\u865f",
        "number": "02-2796-0708"
      }
    },
    {
      "type": "Feature",
      "geometry": {
        "type": "Point",
        "coordinates": [
          121.578134,
          25.063154
        ]
      },
      "properties": {
        "name": "\u53f0\u5317\u820a\u5b97\u4e8c\u9910\u5ef3",
        "open": "06:00\u201300:00",
        "address": "\u53f0\u5317\u5e02\u5167\u6e56\u5340\u820a\u5b97\u8def\u4e00\u6bb5275\u865f",
        "number": "02-2795-2298"
      }
    },
    {
      "type": "Feature",
      "geometry": {
        "type": "Point",
        "coordinates": [
          121.594606,
          25.084626
        ]
      },
      "properties": {
        "name": "\u5167\u6e56\u91d1\u9f8d\u65d7\u8266\u5c08\u6ac3",
        "open": "06:00\u201300:00",
        "address": "\u53f0\u5317\u5e02\u5167\u6e56\u5340\u91d1\u9f8d\u8def22\u865f",
        "number": 